<kml><Document>
<Placemark><name>
        Oviedo,Asturias
      </name><description> Aqui nacio Martin Beltran Diaz</description><Point><coordinates>-5.844722,43.360278238</coordinates></Point></Placemark><Placemark><name>
          Oviedo,Asturias
        </name><description> Aqui nacio Rocio Diaz Prendes</description><Point><coordinates>-5.8448989,43.3605977238</coordinates></Point></Placemark><Placemark><name>
            Coruno,Asturias
          </name><description> Aqui nacio Luz Prendes Cuervo</description><Point><coordinates>-5.8292008,43.4229063107</coordinates></Point></Placemark><Placemark><name>
              Coruno,Asturias
            </name><description> Aqui murio Araceli Cuervo</description><Point><coordinates>-5.829203,43.422905107</coordinates></Point></Placemark><Placemark><name>
              Coruno,Asturias
            </name><description> Aqui nacio Araceli Cuervo</description><Point><coordinates>-5.8292068,43.4229056107</coordinates></Point></Placemark><Placemark><name>
              Posada de Llanera,Asturias
            </name><description> Aqui murio Abelino Prendes</description><Point><coordinates>-5.8513213,43.4402681110</coordinates></Point></Placemark><Placemark><name>
              Posada de Llanera,Asturias
            </name><description> Aqui nacio Abelino Prendes</description><Point><coordinates>-5.8513265,43.4402661110</coordinates></Point></Placemark><Placemark><name>
            Posada de Llanera,Asturias
          </name><description> Aqui murio Anibal Diaz</description><Point><coordinates>-5.8513218,43.4402684110</coordinates></Point></Placemark><Placemark><name>
            La miranda, Asturias
          </name><description> Aqui nacio Anibal Diaz</description><Point><coordinates>-5.8441575,43.476222825</coordinates></Point></Placemark><Placemark><name>
              Oviedo,Asturias
            </name><description> Aqui murio Dolores Garcia</description><Point><coordinates>-5.844895,43.3605909238</coordinates></Point></Placemark><Placemark><name>
              Tamon,Asturias
            </name><description> Aqui nacio Dolores Garcia</description><Point><coordinates>-5.4821772,43.405359198</coordinates></Point></Placemark><Placemark><name>
              Oviedo,Asturias
            </name><description> Aqui murio Jose Diaz</description><Point><coordinates>-5.844845,43.3605919238</coordinates></Point></Placemark><Placemark><name>
              Pandenes,Asturias
            </name><description> Aqui nacio Jose Diaz</description><Point><coordinates>-5.4821776,43.405359198</coordinates></Point></Placemark><Placemark><name>
          San Claudio, Asturias
        </name><description> Aqui nacio Jesus Beltran Perez</description><Point><coordinates>-5.92510543,43.3649</coordinates></Point></Placemark><Placemark><name>
            Colombres, Asturias
          </name><description> Aqui nacio Pilar Perez Garcia</description><Point><coordinates>-4.54035758,43.37497767110</coordinates></Point></Placemark><Placemark><name>
              Aviles,Asturias
            </name><description> Aqui murio Pilar Garcia Gaton</description><Point><coordinates>-5.92510543,43.5737282849</coordinates></Point></Placemark><Placemark><name>
              Las cabanas de Castilla, Palencia
            </name><description> Aqui nacio Pilar Garcia Gaton</description><Point><coordinates>-4.540278,42.353333800</coordinates></Point></Placemark><Placemark><name>
              Aviles,Asturias
            </name><description> Aqui murio Jose Luis Perez Caso</description><Point><coordinates>-5.9251055,43.573728649</coordinates></Point></Placemark><Placemark><name>
              Colombres, Asturias
            </name><description> Aqui nacio Jose Luis Perez Caso</description><Point><coordinates>-4.54035758,43.374978110</coordinates></Point></Placemark><Placemark><name>
            Palencia, Palencia
          </name><description> Aqui nacio Jose Manuel Beltran Lopez</description><Point><coordinates>-4.6161004,42.409632245</coordinates></Point></Placemark><Placemark><name>
              Salamanca, Salamanca
            </name><description> Aqui murio Elpidia Lopez Herrero</description><Point><coordinates>-5.6640182,40.9651572804</coordinates></Point></Placemark><Placemark><name>
              Medina del Campo, Valladolid
            </name><description> Aqui nacio Elpidia Lopez Herrero</description><Point><coordinates>-4.9150256,41.30854961131</coordinates></Point></Placemark><Placemark><name>
              Salamanca, Salamanca
            </name><description> Aqui murio Manuel Beltran Ayuso</description><Point><coordinates>-5.664019,40.9651573804</coordinates></Point></Placemark><Placemark><name>
              Alcaniz, Teruel
            </name><description> Aqui nacio Manuel Beltran Ayuso</description><Point><coordinates>-0.1329565,41.0502540472</coordinates></Point></Placemark></Document></kml>